# Time (s),Altitude (ft),Vertical velocity (ft/s),Vertical acceleration (ft/s²),Total velocity (ft/s),Total acceleration (ft/s²),Position East of launch (ft),Position North of launch (ft),Lateral distance (ft),Lateral direction (°),Lateral velocity (ft/s),Lateral acceleration (ft/s²),Latitude (°),Longitude (°),Gravitational acceleration (ft/s²),Angle of attack (°),Roll rate (r/s),Pitch rate (r/s),Yaw rate (r/s),Mass (oz),Motor mass (oz),Longitudinal moment of inertia (lb·ft²),Rotational moment of inertia (lb·ft²),CP location (in),CG location (in),Stability margin calibers (​),Mach number (​),Reynolds number (​),Thrust (N),Drag force (N),Drag coefficient (​),Axial drag coefficient (​),Friction drag coefficient (​),Pressure drag coefficient (​),Base drag coefficient (​),Normal force coefficient (​),Pitch moment coefficient (​),Yaw moment coefficient (​),Side force coefficient (​),Roll moment coefficient (​),Roll forcing coefficient (​),Roll damping coefficient (​),Pitch damping coefficient (​),Coriolis acceleration (ft/s²),Reference length (in),Reference area (in²),Vertical orientation (zenith) (°),Lateral orientation (azimuth) (°),Wind velocity (ft/s),Air temperature (°F),Air pressure (mbar),Speed of sound (ft/s),Simulation time step (s),Computation time (s),Dynamic Pressure (mbar)
0.01,0,0.039,3.94,0.039,3.955,0,0,0,0,0.003,0.345,32.9,-106,32.123,84.826,0,0,0,2076.353,732.232,1762.713,6.11,NaN,103.801,NaN,0.011,1036896.41,645.105,0,0.666,0.001,0.552,0.013,0.101,NaN,NaN,NaN,NaN,NaN,NaN,NaN,NaN,0,6,28.274,85,0,12.986,99.62,1005.639,1161.628,0.01,0.001,0
0.02,0.003,0.529,48.977,0.531,49.164,0,0,0,0,0.046,4.285,32.9,-106,32.123,82.664,0,0,0,2075.644,731.522,1763.098,6.109,NaN,103.853,NaN,0.011,1036133.029,1455.735,0.001,0.666,0.003,0.552,0.013,0.101,NaN,NaN,NaN,NaN,NaN,NaN,NaN,NaN,0,6,28.274,85,0,12.923,99.62,1005.639,1161.628,0.01,0.001,0
0.03,0.013,1.469,94.045,1.475,94.404,0.001,0,0.001,0,0.129,8.228,32.9,-106,32.123,78.546,0,0,0,2074.934,730.813,1763.492,6.108,NaN,103.904,NaN,0.011,1043412.254,2266.365,0.002,0.665,0.012,0.551,0.013,0.101,NaN,NaN,NaN,NaN,NaN,NaN,NaN,NaN,0,6,28.274,85,0,12.859,99.62,1005.639,1161.628,0.01,0.002,0.001
0.04,0.038,3.521,205.204,3.534,205.988,0.003,0,0.003,0,0.308,17.953,32.9,-106,32.123,69.962,0,0,0,2073.871,729.75,1764.514,6.106,NaN,104.014,NaN,0.012,1083183.01,4264.805,0.01,0.661,0.056,0.547,0.013,0.101,NaN,NaN,NaN,NaN,NaN,NaN,NaN,NaN,0,6,28.274,85,0,12.796,99.62,1005.639,1161.628,0.01,0.002,0.007
0.05,0.092,7.345,382.54,7.373,384.001,0.008,0,0.008,0,0.643,33.468,32.9,-106,32.123,56.228,0,0,0,2072.808,728.686,1765.577,6.104,NaN,104.124,NaN,0.013,1218150.765,7451.055,0.048,0.648,0.218,0.535,0.013,0.101,NaN,NaN,NaN,NaN,NaN,NaN,NaN,NaN,0.001,6,28.274,85,0,12.733,99.62,1005.639,1161.628,0.01,0.002,0.028
0.06,0.19,12.181,483.705,12.227,485.552,0.017,0,0.017,0,1.066,42.319,32.9,-106,32.123,43.556,0,0,0,2071.744,727.622,1766.191,6.102,NaN,104.197,NaN,0.016,1469068.794,9265.275,0.143,0.629,0.441,0.516,0.013,0.101,NaN,NaN,NaN,NaN,NaN,NaN,NaN,NaN,0.001,6,28.274,85,0,12.729,99.62,1005.639,1161.628,0.01,0.002,0.078
0.07,0.337,17.265,508.581,17.331,510.524,0.029,0,0.029,0,1.511,44.495,32.9,-106,32.123,34.507,0,0,0,2070.679,726.557,1766.822,6.101,NaN,104.27,NaN,0.019,1786332.121,9707.465,0.287,0.611,0.6,0.497,0.013,0.101,NaN,NaN,NaN,NaN,NaN,NaN,NaN,NaN,0.002,6,28.274,85,0,12.725,99.62,1005.639,1161.628,0.01,0.003,0.157
0.08,0.536,22.462,519.784,22.547,521.769,0.047,0,0.047,0,1.965,45.475,32.9,-106,32.123,28.179,0,0,0,2069.614,725.493,1767.424,6.099,NaN,104.339,NaN,0.023,2142328.981,9903.773,0.471,0.594,0.685,0.481,0.013,0.101,NaN,NaN,NaN,NaN,NaN,NaN,NaN,NaN,0.003,6,28.274,85,0,12.722,99.62,1005.639,1161.628,0.01,0.003,0.266
0.09,0.786,27.633,517.293,27.739,519.269,0.069,0,0.069,0,2.418,45.257,32.9,-106,32.123,23.71,0,0,0,2068.55,724.428,1768.042,6.097,NaN,104.408,NaN,0.027,2515096.878,9854.198,0.683,0.58,0.721,0.467,0.013,0.101,NaN,NaN,NaN,NaN,NaN,NaN,NaN,NaN,0.003,6,28.274,85,0,12.718,99.62,1005.638,1161.628,0.01,0.003,0.403
0.1,1.088,32.694,506.158,32.818,508.091,0.095,0,0.095,0,2.86,44.283,32.9,-106,32.123,20.472,0,0,0,2067.484,723.363,1768.294,6.095,NaN,104.45,NaN,0.031,2890826.506,9649.66,0.914,0.569,0.73,0.455,0.013,0.101,NaN,NaN,NaN,NaN,NaN,NaN,NaN,NaN,0.004,6,28.274,85,0,12.714,99.62,1005.638,1161.628,0.01,0.004,0.564
0.11,1.439,37.556,486.364,37.699,488.222,0.126,0,0.126,0,3.286,42.551,32.9,-106,32.123,18.202,0,0,0,2066.419,722.297,1768.551,6.094,NaN,104.492,NaN,0.035,3261796.419,9290.16,1.157,0.559,0.726,0.445,0.013,0.101,NaN,NaN,NaN,NaN,NaN,NaN,NaN,NaN,0.005,6,28.274,85,0,12.812,99.619,1005.637,1161.628,0.01,0.004,0.744
0.12,1.839,42.322,476.719,42.484,478.54,0.161,0,0.161,0,3.703,41.708,32.9,-106,32.123,16.433,0,0,0,2065.708,721.587,1768.822,6.092,NaN,104.527,NaN,0.039,3629457.315,9114.405,1.413,0.551,0.715,0.437,0.013,0.101,NaN,NaN,NaN,NaN,NaN,NaN,NaN,NaN,0.005,6,28.274,85,0,12.911,99.619,1005.637,1161.628,0.01,0.004,0.945
0.13,2.286,47.095,477.325,47.275,479.149,0.2,0,0.2,0,4.12,41.761,32.9,-106,32.123,14.988,0,0,0,2064.998,720.877,1769.097,6.091,NaN,104.561,NaN,0.043,4000410.606,9122.395,1.68,0.543,0.7,0.43,0.013,0.101,NaN,NaN,NaN,NaN,NaN,NaN,NaN,NaN,0.006,6,28.274,85,0,13.01,99.619,1005.636,1161.627,0.01,0.005,1.171
0.14,2.78,51.873,477.931,52.071,479.757,0.243,0,0.243,0,4.538,41.814,32.9,-106,32.123,13.788,0,0,0,2064.288,720.167,1769.376,6.09,NaN,104.596,NaN,0.047,4373946.038,9130.385,1.958,0.537,0.683,0.423,0.013,0.101,NaN,NaN,NaN,NaN,NaN,NaN,NaN,NaN,0.006,6,28.274,85,0,13.108,99.619,1005.635,1161.627,0.01,0.005,1.42
0.15,3.323,56.652,477.978,56.868,479.804,0.291,0,0.291,0,4.956,41.818,32.9,-106,32.123,12.777,0,0,0,2063.223,719.102,1770.273,6.088,NaN,104.679,NaN,0.051,4749101.187,9126.813,2.25,0.531,0.666,0.417,0.013,0.101,NaN,NaN,NaN,NaN,NaN,NaN,NaN,NaN,0.007,6,28.274,85,0,13.207,99.619,1005.634,1161.627,0.01,0.005,1.694
0.16,3.913,61.424,477.379,61.659,479.202,0.342,0,0.342,0,5.374,41.765,32.9,-106,32.123,11.747,0,0,0,2062.158,718.037,1771.192,6.087,NaN,104.762,NaN,0.055,5120519.056,9111.678,2.545,0.526,0.647,0.412,0.013,0.101,NaN,NaN,NaN,NaN,NaN,NaN,NaN,NaN,0.008,6,28.274,85,0,13.11,99.619,1005.634,1161.627,0.01,0.005,1.992
0.17,4.551,66.116,469.324,66.369,471.116,0.398,0,0.398,0,5.784,41.06,32.9,-106,32.123,10.87,0,0,0,2061.092,716.971,1771.215,6.085,NaN,104.785,NaN,0.059,5487027.493,8963.265,2.847,0.521,0.631,0.407,0.013,0.101,NaN,NaN,NaN,NaN,NaN,NaN,NaN,NaN,0.008,6,28.274,85,0,13.012,99.619,1005.633,1161.627,0.01,0.006,2.307
0.18,5.235,70.653,453.801,70.923,455.535,0.458,0,0.458,0,6.181,39.702,32.9,-106,32.123,10.125,0,0,0,2060.026,715.905,1771.24,6.083,NaN,104.809,NaN,0.063,5842417.995,8681.575,3.152,0.517,0.616,0.402,0.013,0.101,NaN,NaN,NaN,NaN,NaN,NaN,NaN,NaN,0.009,6,28.274,85,0,12.915,99.619,1005.632,1161.627,0.01,0.006,2.635
0.19,5.963,75.036,438.371,75.322,440.045,0.522,0,0.522,0,6.565,38.352,32.9,-106,32.123,9.484,0,0,0,2058.96,714.839,1771.27,6.081,NaN,104.832,NaN,0.067,6186490.953,8401.815,3.46,0.513,0.603,0.399,0.013,0.101,NaN,NaN,NaN,NaN,NaN,NaN,NaN,NaN,0.009,6,28.274,85,0,12.818,99.618,1005.63,1161.626,0.01,0.006,2.972
0.2,6.735,79.265,423.032,79.568,424.648,0.589,0,0.589,0,6.935,37.011,32.9,-106,32.123,8.927,0,0,0,2057.895,713.773,1771.301,6.08,NaN,104.856,NaN,0.07,6519117.221,8123.985,3.769,0.509,0.591,0.395,0.013,0.101,NaN,NaN,NaN,NaN,NaN,NaN,NaN,NaN,0.01,6,28.274,85,0,12.721,99.618,1005.629,1161.626,0.01,0.006,3.316
0.21,7.548,83.407,414.294,83.726,415.877,0.66,0,0.66,0,7.297,36.246,32.9,-106,32.123,8.556,0,0,0,2057.362,713.24,1771.422,6.079,NaN,104.874,NaN,0.074,6848969.556,7966.278,4.099,0.506,0.583,0.392,0.013,0.101,NaN,NaN,NaN,NaN,NaN,NaN,NaN,NaN,0.01,6,28.274,85,0,12.814,99.618,1005.628,1161.626,0.01,0.007,3.672
0.22,8.403,87.53,412.284,87.864,413.859,0.735,0,0.735,0,7.658,36.07,32.9,-106,32.123,8.222,0,0,0,2056.829,712.707,1771.544,6.078,NaN,104.892,NaN,0.077,7177487.412,7928.692,4.44,0.503,0.575,0.389,0.013,0.101,NaN,NaN,NaN,NaN,NaN,NaN,NaN,NaN,0.011,6,28.274,85,0,12.907,99.618,1005.627,1161.626,0.01,0.007,4.044
0.23,9.299,91.632,410.272,91.982,411.839,0.814,0,0.814,0,8.017,35.894,32.9,-106,32.123,7.918,0,0,0,2056.296,712.174,1771.668,6.077,NaN,104.911,NaN,0.081,7504631.528,7891.108,4.793,0.5,0.568,0.386,0.013,0.102,NaN,NaN,NaN,NaN,NaN,NaN,NaN,NaN,0.011,6,28.274,85,0,13,99.618,1005.625,1161.626,0.01,0.007,4.432
0.24,10.236,95.714,408.258,96.08,409.817,0.895,0,0.895,0,8.374,35.718,32.9,-106,32.123,7.641,0,0,0,2055.763,711.641,1771.792,6.076,NaN,104.929,NaN,0.084,7830369.258,7853.522,5.158,0.498,0.561,0.383,0.013,0.102,NaN,NaN,NaN,NaN,NaN,NaN,NaN,NaN,0.012,6,28.274,85,0,13.093,99.617,1005.624,1161.625,0.01,0.007,4.836
0.25,11.213,99.781,406.787,100.162,408.34,0.981,0,0.981,0,8.73,35.589,32.9,-106,32.123,7.388,0,0,0,2054.697,710.575,1771.881,6.074,NaN,104.955,NaN,0.088,8155060.236,7823.608,5.534,0.495,0.555,0.381,0.013,0.102,NaN,NaN,NaN,NaN,NaN,NaN,NaN,NaN,0.012,6,28.274,85,0,13.187,99.617,1005.623,1161.625,0.01,0.007,5.255
0.26,12.231,103.837,405.745,104.234,407.295,1.07,0,1.07,0,9.085,35.498,32.9,-106,32.123,7.017,0,0,0,2053.631,709.509,1771.973,6.073,NaN,104.982,NaN,0.091,8474703.365,7801.362,5.897,0.493,0.548,0.378,0.013,0.102,NaN,NaN,NaN,NaN,NaN,NaN,NaN,NaN,0.013,6,28.274,85,0,13.019,99.617,1005.621,1161.625,0.01,0.008,5.691
0.27,13.29,107.865,402.879,108.277,404.418,1.163,0,1.163,0,9.437,35.247,32.9,-106,32.123,6.674,0,0,0,2052.565,708.444,1772.269,6.071,NaN,105.02,NaN,0.095,8792395.072,7746.66,6.27,0.491,0.541,0.376,0.013,0.102,NaN,NaN,NaN,NaN,NaN,NaN,NaN,NaN,0.013,6,28.274,85,0,12.851,99.617,1005.619,1161.625,0.01,0.008,6.141
0.28,14.388,111.846,398.185,112.273,399.706,1.259,0,1.259,0,9.785,34.837,32.9,-106,32.123,6.359,0,0,0,2051.499,707.378,1772.571,6.069,NaN,105.059,NaN,0.098,9106641.283,7659.5,6.649,0.489,0.535,0.374,0.013,0.102,NaN,NaN,NaN,NaN,NaN,NaN,NaN,NaN,0.014,6,28.274,85,0,12.683,99.616,1005.618,1161.624,0.01,0.008,6.603
0.29,15.526,115.773,392.83,116.216,394.33,1.358,0,1.358,0,10.129,34.368,32.9,-106,32.123,6.066,0,0,0,2050.433,706.312,1772.883,6.067,NaN,105.098,NaN,0.102,9416878.817,7560.66,7.035,0.487,0.529,0.372,0.013,0.102,NaN,NaN,NaN,NaN,NaN,NaN,NaN,NaN,0.014,6,28.274,85,0,12.515,99.616,1005.616,1161.624,0.01,0.008,7.075
0.3,16.703,119.64,386.811,120.097,388.289,1.461,0,1.461,0,10.467,33.842,32.9,-106,32.123,5.796,0,0,0,2049.367,705.246,1773.199,6.066,NaN,105.137,NaN,0.105,9722547.909,7450.14,7.426,0.485,0.524,0.37,0.013,0.102,NaN,NaN,NaN,NaN,NaN,NaN,NaN,NaN,0.015,6,28.274,85,0,12.347,99.616,1005.614,1161.624,0.01,0.008,7.555
0.31,17.919,123.469,382.96,123.941,384.423,1.568,0,1.568,0,10.802,33.505,32.9,-106,32.123,5.632,0,0,0,2048.657,704.535,1773.561,6.064,NaN,105.171,NaN,0.108,10028268.301,7379.54,7.844,0.483,0.52,0.368,0.013,0.102,NaN,NaN,NaN,NaN,NaN,NaN,NaN,NaN,0.015,6,28.274,85,0,12.376,99.615,1005.612,1161.623,0.01,0.009,8.047
0.32,19.173,127.282,381.352,127.769,382.809,1.677,0,1.677,0,11.136,33.364,32.9,-106,32.123,5.478,0,0,0,2047.946,703.824,1773.927,6.063,NaN,105.206,NaN,0.111,10332783.584,7348.86,8.27,0.481,0.517,0.366,0.013,0.102,NaN,NaN,NaN,NaN,NaN,NaN,NaN,NaN,0.016,6,28.274,85,0,12.405,99.615,1005.611,1161.623,0.01,0.009,8.551
0.33,20.464,131.079,379.744,131.58,381.194,1.79,0,1.79,0,11.468,33.223,32.9,-106,32.123,5.334,0,0,0,2047.235,703.114,1774.297,6.062,NaN,105.24,NaN,0.115,10636084.84,7318.18,8.707,0.48,0.513,0.364,0.013,0.102,NaN,NaN,NaN,NaN,NaN,NaN,NaN,NaN,0.016,6,28.274,85,0,12.434,99.615,1005.609,1161.623,0.01,0.009,9.069
0.34,21.794,134.869,379.028,135.384,380.476,1.907,0,1.907,0,11.799,33.161,32.9,-106,32.123,5.198,0,0,0,2046.169,702.048,1774.278,6.06,NaN,105.258,NaN,0.118,10938850.064,7302.13,9.153,0.478,0.51,0.363,0.013,0.102,NaN,NaN,NaN,NaN,NaN,NaN,NaN,NaN,0.017,6,28.274,85,0,12.463,99.615,1005.607,1161.622,0.01,0.009,9.601
0.35,23.162,138.659,379.137,139.189,380.585,2.026,0,2.026,0,12.131,33.17,32.9,-106,32.123,5.07,0,0,0,2045.103,700.981,1774.26,6.059,NaN,105.276,NaN,0.121,11241759.261,7300.71,9.611,0.477,0.507,0.361,0.013,0.102,NaN,NaN,NaN,NaN,NaN,NaN,NaN,NaN,0.017,6,28.274,85,0,12.492,99.614,1005.605,1161.622,0.01,0.009,10.148
0.36,24.567,142.44,378.194,142.984,379.639,2.149,0,2.149,0,12.462,33.088,32.9,-106,32.123,4.858,0,0,0,2044.037,699.915,1774.277,6.057,NaN,105.296,NaN,0.124,11540800.645,7280.647,10.055,0.475,0.504,0.36,0.013,0.103,NaN,NaN,NaN,NaN,NaN,NaN,NaN,NaN,0.018,6,28.274,85,0,12.29,99.614,1005.602,1161.622,0.01,0.01,10.709
0.375,26.746,148.07,375.354,148.638,376.932,2.34,0,2.34,0,12.979,34.449,32.9,-106,32.123,4.57,0,0,0,2042.438,698.316,1774.304,6.054,120.503,105.326,2.53,0.129,11986500.354,7227.805,10.738,0.473,0.498,0.357,0.013,0.103,0.969,2.452,-0,0,0,0,0,0,0.018,6,28.274,84.999,0,11.987,99.613,1005.599,1161.621,0.015,0.01,11.573
0.398,30.171,156.336,367.284,156.938,368.833,2.641,0,2.641,0,13.738,33.772,32.9,-106,32.123,4.178,0,0.001,0,2040.039,695.917,1774.694,6.05,121.157,105.389,2.628,0.136,12641098.359,7077.609,11.783,0.47,0.492,0.354,0.013,0.103,0.867,2.278,0,0,0,0,0,0,0.019,6,28.274,84.996,-0,11.534,99.613,1005.594,1161.62,0.023,0.01,12.901
0.431,35.652,168.463,359.328,169.117,360.843,3.123,0,3.123,0,14.854,33.031,32.9,-106,32.123,4.01,0,0.001,0,2037.573,693.451,1775.128,6.046,121.456,105.455,2.667,0.147,13615877.333,6930.133,13.517,0.467,0.486,0.35,0.013,0.103,0.824,2.197,0,0,0,0,0,0.001,0.021,6,28.274,84.984,-0,11.905,99.611,1005.586,1161.619,0.034,0.01,14.981
0.481,44.517,186.131,353.588,186.859,355.086,3.907,0,3.907,0,16.479,32.581,32.9,-106,32.123,3.75,0,0.002,0,2032.176,688.054,1774.911,6.037,121.929,105.532,2.733,0.162,15033199.327,6813.45,16.267,0.463,0.48,0.346,0.014,0.104,0.759,2.073,0,0,0,0,0,0.002,0.023,6,28.274,84.952,-0,12.328,99.609,1005.572,1161.616,0.05,0.01,18.29
0.531,54.25,203.207,341.703,204.008,343.178,4.77,0,4.77,0,18.061,31.794,32.9,-106,32.123,3.391,0,0.004,0,2028.511,684.389,1774.761,6.031,122.6,105.583,2.836,0.177,16400817.001,6595.437,19.267,0.463,0.478,0.345,0.014,0.104,0.673,1.905,0,0,0,0,0,0.003,0.025,6,28.274,84.899,-0,12.282,99.607,1005.558,1161.614,0.05,0.011,21.801
0.581,64.829,219.931,334.829,220.805,336.327,5.712,0,5.712,0,19.63,31.711,32.9,-106,32.123,2.889,0,0.005,0,2023.645,679.524,1775.248,6.023,123.584,105.686,2.983,0.191,17731028.885,6462.899,22.373,0.464,0.475,0.345,0.014,0.105,0.556,1.653,-0,0,0,0,0,0.005,0.027,6,28.274,84.824,-0,11.536,99.604,1005.542,1161.611,0.05,0.011,25.538
0.631,76.235,236.329,328.109,237.279,329.645,6.733,0,6.733,0,21.201,31.784,32.9,-106,32.123,2.46,0,0.006,0,2019.98,675.859,1775.131,6.017,124.48,105.736,3.124,0.205,19036971.606,6337.812,25.673,0.465,0.472,0.345,0.014,0.105,0.461,1.434,-0,0,0,0,0,0.006,0.029,6,28.274,84.726,-0,10.893,99.586,1005.431,1161.591,0.05,0.011,29.488
0.681,88.456,252.526,324.41,253.552,326.007,7.832,0,7.832,0,22.79,32.235,32.9,-106,32.123,2.137,0,0.007,0,2014.049,669.927,1775.303,6.008,125.193,105.834,3.227,0.219,20327924.414,6259.387,29.202,0.465,0.471,0.345,0.014,0.106,0.392,1.258,-0,0,0,0,0,0.008,0.031,6,28.274,84.605,-0,10.596,99.52,1005.027,1161.517,0.05,0.011,33.662
0.731,101.481,268.482,319.259,269.588,320.931,9.012,0,9.012,0.001,24.4,32.712,32.9,-106,32.123,1.819,0,0.009,0,2009.85,665.729,1775.336,6.001,125.927,105.897,3.338,0.233,21599714.431,6161.8,32.91,0.466,0.47,0.345,0.015,0.107,0.327,1.083,0,0,0,0,0,0.01,0.033,6,28.274,84.462,-0,10.263,99.449,1004.596,1161.439,0.05,0.012,38.043
0.781,115.3,284.283,316.304,285.474,318.069,10.273,0,10.273,0.001,26.046,33.461,32.9,-106,32.123,1.614,0,0.01,0,2005.518,661.397,1775.359,5.994,126.427,105.96,3.411,0.247,22863833.575,6102.788,36.865,0.467,0.47,0.344,0.015,0.107,0.287,0.966,-0,0,0,0,0,0.012,0.035,6,28.274,84.297,-0,10.456,99.374,1004.14,1161.356,0.05,0.012,42.645
0.831,129.906,299.941,313.322,301.22,315.199,11.617,0,11.617,0.001,27.732,34.345,32.9,-106,32.122,1.417,0,0.011,0,2000.942,656.821,1775.249,5.986,126.92,106.018,3.484,0.26,24117433.725,6043.289,41.021,0.467,0.47,0.344,0.015,0.108,0.249,0.853,0,0,0,0,0,0.013,0.037,6,28.274,84.109,-0,10.735,99.294,1003.657,1161.269,0.05,0.012,47.464
0.881,145.29,315.443,310.293,316.817,312.311,13.047,0,13.047,0.001,29.467,35.453,32.9,-106,32.122,1.137,0,0.012,0,1995.922,651.801,1775.079,5.978,127.636,106.078,3.593,0.274,25353778.381,5982.502,45.325,0.468,0.47,0.344,0.015,0.109,0.196,0.689,0,0,0,0,0,0.014,0.039,6,28.274,83.9,-0,10.59,99.211,1003.149,1161.176,0.05,0.012,52.487
0.931,161.449,330.897,309.119,332.371,311.296,14.565,0,14.565,0.001,31.27,36.75,32.9,-106,32.122,0.996,0,0.013,0,1992.257,648.135,1775.013,5.972,128.024,106.124,3.65,0.287,26594529.353,5958.462,49.923,0.469,0.47,0.344,0.016,0.11,0.17,0.605,-0,0,0,0,0,0.015,0.041,6,28.274,83.672,-0,11.258,99.123,1002.615,1161.079,0.05,0.012,57.746
0.981,178.38,346.336,308.984,347.918,311.364,16.175,0,16.175,0.001,33.145,38.423,32.9,-106,32.122,0.746,0,0.014,0,1987.391,643.27,1775.096,5.964,128.703,106.192,3.752,0.301,27827818.778,5949.671,54.701,0.47,0.471,0.343,0.016,0.111,0.125,0.454,-0,0,0,0,0,0.016,0.043,6,28.274,83.425,-0,11.356,99.031,1002.055,1160.978,0.05,0.013,63.249
1.031,196.08,361.68,307.016,363.38,309.614,17.881,0,17.881,0.001,35.1,40.024,32.9,-106,32.122,0.485,0,0.015,0,1982.127,638.005,1774.819,5.955,129.442,106.246,3.866,0.314,29053046.124,5908.718,59.692,0.471,0.471,0.343,0.016,0.112,0.08,0.293,0,0,0,0,0,0.016,0.045,6,28.274,83.162,-0,11.372,98.935,1001.47,1160.872,0.05,0.013,68.968
1.081,214.547,377.024,307.036,378.85,309.881,19.686,0,19.686,0.001,37.147,41.896,32.9,-106,32.122,0.277,0,0.015,0,1977.796,633.674,1774.623,5.948,130.055,106.291,3.961,0.328,30281156.161,5905.402,64.957,0.472,0.472,0.343,0.017,0.113,0.045,0.162,-0,0,0,0,0,0.016,0.046,6,28.274,82.889,-0,11.738,98.835,1000.86,1160.761,0.05,0.013,74.933
1.131,233.78,392.262,304.751,394.223,307.864,21.597,0,21.597,0.001,39.278,43.672,32.9,-106,32.122,0.021,0,-0.016,0,1973.598,629.476,1774.446,5.941,130.832,106.335,4.083,0.341,31494522.8,5863.608,70.41,0.473,0.473,0.342,0.017,0.114,0.003,0.029,-0,0,0,0,0,-0.015,0.048,6,28.274,82.61,-0,11.453,98.73,1000.224,1160.645,0.05,0.014,81.101
1.181,253.774,407.529,305.635,409.639,309.055,23.616,0.001,23.616,0.001,41.518,45.852,32.9,-106,32.122,0.277,0,-0.015,0,1968.199,624.078,1774.412,5.932,130.129,106.398,3.955,0.354,32711484.648,5873.306,76.155,0.474,0.474,0.342,0.017,0.115,0.045,0.192,0,0,0,0,0,-0.014,0.05,6,28.274,82.332,-0,11.344,98.622,999.564,1160.525,0.05,0.014,87.527
1.231,274.531,422.721,303.781,424.99,307.492,25.75,0.001,25.75,0.001,43.849,47.629,32.9,-106,32.122,0.499,0,-0.015,0,1964.534,620.413,1774.297,5.926,129.548,106.436,3.852,0.367,33923984.108,5841.473,82.151,0.475,0.475,0.342,0.018,0.116,0.083,0.33,0,0,0,0,0,-0.012,0.052,6,28.274,82.063,-0,11.337,98.509,998.878,1160.401,0.05,0.014,94.164
1.281,296.047,437.92,304.102,440.359,308.109,28.003,0.001,28.003,0.001,46.28,49.525,32.9,-106,32.122,0.643,0,-0.013,0,1959.67,615.548,1774.174,5.918,129.197,106.486,3.785,0.381,35140539.606,5843.461,88.419,0.476,0.477,0.341,0.018,0.117,0.108,0.416,0,0,0,0,0,-0.009,0.054,6,28.274,81.81,-0,11.735,98.392,998.167,1160.272,0.05,0.014,101.047
1.331,318.323,453.151,304.682,455.772,308.971,30.379,0.001,30.379,0.002,48.803,51.301,32.9,-106,32.122,0.749,0,-0.012,0,1954.938,610.816,1774.163,5.911,128.956,106.539,3.736,0.394,36360825.855,5850.227,94.962,0.477,0.478,0.341,0.019,0.118,0.127,0.479,-0,0,0,0,0,-0.007,0.056,6,28.274,81.58,-0,12.23,98.271,997.431,1160.138,0.05,0.014,108.188
1.381,341.361,468.355,304.316,471.167,308.852,32.884,0.001,32.884,0.002,51.402,52.739,32.9,-106,32.122,0.824,0,-0.01,0,1950.073,605.952,1774.04,5.903,128.803,106.587,3.703,0.408,37578334.906,5840.284,101.745,0.479,0.48,0.341,0.019,0.119,0.14,0.523,0,0,0,0,0,-0.005,0.058,6,28.274,81.378,0,12.738,98.146,996.669,1160,0.05,0.015,115.558
1.431,365.159,483.554,303.966,486.568,308.743,35.521,0.001,35.521,0.002,54.072,54.101,32.9,-106,32.122,0.934,0,-0.008,0,1945.875,601.754,1773.964,5.896,128.56,106.629,3.655,0.421,38789360.544,5832.724,108.782,0.48,0.481,0.34,0.019,0.12,0.16,0.589,0,0,0,0,0,-0.003,0.06,6,28.274,81.208,0,12.659,98.016,995.883,1159.857,0.05,0.015,123.168
1.481,389.716,498.761,304.26,501.987,309.266,38.293,0.001,38.293,0.002,56.811,55.422,32.9,-106,32.122,1.064,0,-0.006,0,1941.544,597.422,1773.903,5.889,128.276,106.672,3.601,0.434,39993754.142,5835.657,116.071,0.481,0.483,0.34,0.02,0.121,0.184,0.665,0,0,0,0,0,-0.001,0.062,6,28.274,81.078,0.001,12.028,97.883,995.071,1159.71,0.05,0.015,131.022
1.531,415.034,513.947,303.784,517.391,308.928,41.203,0.001,41.203,0.002,59.601,56.14,32.9,-106,32.122,1.103,0,-0.003,0,1936.968,592.846,1773.85,5.881,128.226,106.717,3.585,0.447,41199807.667,5823.77,123.584,0.483,0.484,0.34,0.02,0.123,0.192,0.689,0,0,0,0,0,-0,0.064,6,28.274,80.993,0.001,11.748,97.746,994.235,1159.558,0.05,0.015,139.104
1.581,441.111,529.121,303.713,532.79,308.888,44.253,0.001,44.253,0.002,62.413,56.301,32.9,-106,32.122,1.031,0,-0,0,1931.947,587.825,1773.807,5.873,128.456,106.765,3.615,0.461,42409658.054,5816.008,131.306,0.484,0.486,0.339,0.021,0.124,0.179,0.647,0,0,0,0,0,-0,0.065,6,28.274,80.96,0.001,12.028,97.604,993.373,1159.401,0.05,0.016,147.416
1.631,467.947,544.336,304.355,548.23,309.457,47.444,0.002,47.444,0.002,65.224,55.959,32.9,-106,32.121,0.869,0,0.002,0,1928.282,584.16,1773.77,5.867,128.926,106.8,3.688,0.474,43626628.012,5822.864,139.282,0.486,0.487,0.339,0.021,0.125,0.149,0.551,-0,0,0,0,0,0,0.067,6,28.274,80.978,0.002,12.767,97.458,992.486,1159.24,0.05,0.016,155.986
1.681,495.543,559.516,303.88,563.633,308.854,50.775,0.002,50.775,0.002,67.998,55.205,32.9,-106,32.121,0.733,0,0.005,0,1923.285,579.163,1773.758,5.859,129.335,106.847,3.748,0.488,44831812.001,5806.547,147.486,0.487,0.488,0.338,0.022,0.127,0.125,0.468,-0,0,0,0,0,0.001,0.069,6,28.274,81.041,0.002,12.891,97.308,991.574,1159.075,0.05,0.016,164.767
1.731,523.9,574.765,305.147,579.102,309.942,54.243,0.002,54.243,0.002,70.743,54.308,32.9,-106,32.121,0.559,0,0.007,0,1918.153,574.032,1773.74,5.85,129.857,106.894,3.827,0.501,46041470.371,5818.352,155.992,0.489,0.489,0.338,0.023,0.128,0.094,0.359,-0,0,0,0,0,0.001,0.071,6,28.274,81.146,0.003,13.058,97.154,990.637,1158.905,0.05,0.016,173.819
1.781,553.018,589.967,304.317,594.518,308.884,57.848,0.002,57.848,0.002,73.417,52.92,32.9,-106,32.121,0.41,0,0.008,0,1913.821,569.699,1773.697,5.843,130.326,106.932,3.899,0.515,47238691.987,5797.164,164.726,0.49,0.491,0.337,0.023,0.13,0.068,0.265,-0,0,0,0,0,0.002,0.073,6,28.274,81.284,0.003,12.73,96.996,989.675,1158.73,0.05,0.016,183.07
1.831,582.897,605.182,304.468,609.938,308.735,61.584,0.002,61.584,0.002,76.022,51.152,32.9,-106,32.121,0.168,0,0.01,0,1909.623,565.501,1773.698,5.836,131.07,106.969,4.017,0.528,48444024.833,5791.945,173.81,0.492,0.492,0.337,0.024,0.131,0.028,0.108,-0,0,0,0,0,0.002,0.075,6,28.274,81.447,0.003,13.19,96.834,988.687,1158.551,0.05,0.017,192.554
1.881,613.537,620.431,305.353,625.382,309.315,65.448,0.003,65.448,0.002,78.533,49.352,32.9,-106,32.121,0.077,0,-0.01,-0,1904.225,560.104,1773.713,5.827,131.397,107.017,4.063,0.541,49649658.308,5795.549,183.257,0.494,0.494,0.336,0.025,0.133,0.013,0.054,-0,0,0,0,0,-0.002,0.077,6,28.274,81.621,0.004,13.724,96.667,987.675,1158.367,0.05,0.017,202.282
1.931,644.939,635.644,304.366,640.778,308.03,69.436,0.003,69.436,0.002,80.946,47.37,32.9,-106,32.121,0.279,0,-0.009,-0,1900.56,556.438,1773.717,5.821,130.887,107.048,3.973,0.555,50846300.282,5773.79,192.996,0.496,0.496,0.336,0.025,0.134,0.046,0.186,0,0,0,0,0,-0.002,0.079,6,28.274,81.79,0.004,13.941,96.497,986.637,1158.178,0.05,0.017,212.206
1.981,677.1,650.783,303.001,656.087,306.439,73.541,0.003,73.541,0.003,83.263,45.769,32.9,-106,32.121,0.386,0,-0.007,-0,1895.694,551.572,1773.608,5.813,130.656,107.084,3.929,0.568,52025048.712,5743.631,202.901,0.497,0.498,0.335,0.026,0.136,0.065,0.256,0,0,0,0,0,-0.001,0.081,6,28.274,81.937,0.004,13.419,96.322,985.574,1157.986,0.05,0.018,222.298
2.031,710.016,665.856,301.656,671.324,304.898,77.761,0.004,77.761,0.003,85.511,44.345,32.9,-106,32.121,0.485,0,-0.006,-0,1890.763,546.641,1773.685,5.805,130.457,107.126,3.888,0.581,53199681.774,5714.474,213.096,0.499,0.5,0.335,0.027,0.138,0.082,0.32,0,0,0,0,0,-0.001,0.082,6,28.274,82.054,0.005,13.184,96.143,984.487,1157.788,0.05,0.018,232.561
2.081,743.688,681.054,304.141,686.679,307.264,82.092,0.004,82.092,0.003,87.717,43.698,32.9,-106,32.121,0.572,0,-0.003,-0,1886.097,541.976,1773.62,5.798,130.297,107.16,3.856,0.595,54386048.644,5750.251,223.721,0.501,0.502,0.334,0.028,0.139,0.098,0.377,0,0,0,0,0,-0,0.084,6,28.274,82.131,0.005,13.357,95.96,983.374,1157.586,0.05,0.018,243.126
2.131,778.12,696.211,303.136,701.989,306.19,86.532,0.004,86.532,0.003,89.881,43.135,32.9,-106,32.121,0.595,0,-0,-0,1881.898,537.776,1773.514,5.791,130.314,107.188,3.854,0.608,55565296.379,5731.393,234.574,0.503,0.504,0.334,0.029,0.141,0.102,0.393,-0,0,0,0,0,-0,0.086,6,28.274,82.16,0.006,13.375,95.773,982.236,1157.379,0.05,0.019,253.879
2.181,813.307,711.259,301.06,717.187,304.101,91.079,0.005,91.079,0.003,92.023,42.903,32.9,-106,32.12,0.586,0,0.003,-0,1877.566,533.444,1773.44,5.784,130.423,107.218,3.867,0.621,56736317.91,5695.919,245.658,0.506,0.506,0.333,0.029,0.143,0.101,0.389,0,0,0,0,0,0,0.088,6,28.274,82.135,0.007,13.657,95.582,981.073,1157.168,0.05,0.019,264.769
2.231,849.243,726.2,298.706,732.28,301.829,95.734,0.005,95.734,0.003,94.167,43.301,32.9,-106,32.12,0.515,0,0.006,-0,1872.834,528.712,1773.406,5.776,130.702,107.251,3.908,0.635,57896337.203,5656.557,256.925,0.508,0.508,0.332,0.03,0.145,0.088,0.344,-0,0,0,0,0,0.001,0.09,6,28.274,82.055,0.007,13.84,95.387,979.886,1156.953,0.05,0.019,275.792
2.281,885.926,741.119,298.374,747.357,301.708,100.497,0.006,100.497,0.003,96.363,44.728,32.9,-106,32.12,0.369,-0,0.008,-0,1867.968,523.847,1773.35,5.768,131.192,107.283,3.985,0.648,59048077.424,5651.833,268.406,0.51,0.51,0.332,0.031,0.147,0.063,0.248,0,0,0,0,0,0.001,0.092,6,28.274,81.926,0.008,13.644,95.188,978.674,1156.733,0.05,0.019,287.014
2.331,923.351,755.896,295.536,762.303,299.116,105.371,0.006,105.371,0.003,98.626,46.141,32.9,-106,32.12,0.212,0,0.01,-0,1862.636,518.514,1773.143,5.759,131.728,107.312,4.069,0.661,60190704.43,5606.154,280.167,0.512,0.512,0.331,0.032,0.149,0.036,0.143,-0,0,0,0,0,0.002,0.094,6,28.274,81.758,0.008,13.702,94.984,977.437,1156.508,0.05,0.019,298.341
2.381,961.513,770.562,293.081,777.149,296.965,110.36,0.007,110.36,0.004,100.968,47.87,32.9,-106,32.12,0.04,-0,0.011,-0,1858.971,514.849,1773.184,5.753,132.317,107.338,4.163,0.674,61323656.018,5572.714,292.218,0.515,0.515,0.331,0.034,0.15,0.007,0.025,-0,0,0,0,0,0.002,0.095,6,28.274,81.568,0.007,13.789,94.777,976.176,1156.279,0.05,0.02,309.79
2.431,1000.405,785.108,290.902,791.889,295.184,115.469,0.008,115.469,0.004,103.407,50.094,32.9,-106,32.12,0.191,0,-0.01,-0,1854.105,509.984,1773.084,5.745,131.974,107.366,4.101,0.687,62435522.127,5541.932,304.471,0.517,0.517,0.33,0.035,0.152,0.032,0.134,0,0,0,0,0,-0.002,0.097,6,28.274,81.374,0.007,12.987,94.566,974.89,1156.046,0.05,0.02,321.351
2.481,1040.022,799.59,289.4,806.581,294.038,120.703,0.008,120.703,0.004,105.963,52.018,32.9,-106,32.12,0.359,-0,-0.008,-0,1849.907,505.785,1773.075,5.738,131.597,107.392,4.034,0.699,63547142.425,5523.756,317.143,0.52,0.52,0.33,0.036,0.154,0.061,0.249,-0,0,0,0,0,-0.001,0.099,6,28.274,81.203,0.006,12.615,94.351,973.581,1155.808,0.05,0.02,333.068
2.531,1080.362,814.018,288.457,821.23,293.373,126.067,0.009,126.067,0.004,108.599,53.48,32.9,-106,32.12,0.469,-0,-0.006,0,1845.574,501.453,1773.001,5.731,131.391,107.415,3.996,0.712,64653994.981,5513.411,330.143,0.522,0.523,0.329,0.037,0.156,0.081,0.325,-0,0,0,0,0,-0,0.101,6,28.274,81.077,0.006,12.372,94.132,972.248,1155.566,0.05,0.02,344.939
2.581,1121.422,828.363,286.95,835.804,291.916,131.564,0.01,131.564,0.004,111.281,53.614,32.9,-106,32.12,0.449,0,-0.002,-0,1840.287,496.165,1772.866,5.722,131.549,107.442,4.018,0.725,65764537.913,5488.608,343.471,0.525,0.525,0.328,0.038,0.158,0.078,0.313,0,0,0,0,0,-0,0.103,6,28.274,81.009,0.006,13.122,93.909,970.891,1155.32,0.05,0.021,356.937
2.631,1163.196,842.616,285.07,850.284,289.948,137.194,0.01,137.194,0.004,113.936,52.96,32.9,-106,32.119,0.379,0,0.001,0,1835.976,491.854,1772.636,5.715,131.847,107.459,4.065,0.738,66864302.001,5459.057,357.033,0.528,0.528,0.328,0.04,0.16,0.066,0.267,0,0,0,0,0,0,0.105,6,28.274,81.001,0.005,13.802,93.682,969.511,1155.069,0.05,0.021,369.037
2.681,1205.681,856.778,283.255,864.67,287.989,142.957,0.011,142.957,0.004,116.554,52.003,32.9,-106,32.119,0.313,0,0.004,-0,1831.244,487.122,1772.505,5.708,132.139,107.481,4.11,0.75,67944951.13,5428.895,370.782,0.531,0.531,0.327,0.041,0.162,0.054,0.221,0,0,0,0,0,0,0.106,6,28.274,81.045,0.005,13.668,93.451,968.107,1154.814,0.05,0.021,381.237
2.731,1248.874,870.916,282.809,879.025,287.305,148.849,0.012,148.849,0.005,119.121,50.629,32.9,-106,32.119,0.202,0,0.006,-0,1827.444,483.323,1772.316,5.701,132.561,107.495,4.178,0.763,69020957.876,5422.145,384.884,0.534,0.534,0.326,0.043,0.164,0.035,0.144,0,0,0,0,0,0,0.108,6,28.274,81.134,0.005,13.596,93.216,966.679,1154.555,0.05,0.021,393.586
2.781,1292.773,885.052,282.739,893.367,286.91,154.867,0.013,154.867,0.005,121.606,48.746,32.9,-105.999,32.119,0.049,0,0.007,-0,1822.515,478.394,1771.993,5.693,133.116,107.51,4.268,0.776,70097582.292,5417.479,399.462,0.537,0.537,0.326,0.045,0.167,0.008,0.034,0,0,0,0,0,0.001,0.11,6,28.274,81.252,0.005,13.837,92.978,965.229,1154.292,0.05,0.022,406.099
2.831,1337.376,899.054,280.037,907.562,283.892,161.007,0.014,161.007,0.005,123.975,46.627,32.9,-105.999,32.119,0.072,0,-0.007,-0,1819.55,475.429,1772.105,5.688,133.161,107.529,4.272,0.788,71152830.166,5377.111,414.271,0.54,0.54,0.325,0.047,0.169,0.012,0.053,0,0,0,0,0,-0.001,0.112,6,28.274,81.378,0.005,13.53,92.735,963.755,1154.024,0.05,0.022,418.65
2.881,1382.677,913,278.903,921.69,282.523,167.263,0.015,167.263,0.005,126.261,45.078,32.9,-105.999,32.119,0.153,0,-0.006,-0,1814.737,470.616,1771.899,5.68,133.039,107.545,4.249,0.8,72196275.99,5357.973,429.424,0.544,0.544,0.324,0.049,0.171,0.026,0.113,-0,0,0,0,0,-0,0.113,6,28.274,81.492,0.007,12.84,92.489,962.258,1153.752,0.05,0.022,431.307
2.931,1428.673,926.853,277.043,935.714,280.463,173.632,0.016,173.632,0.005,128.471,43.661,32.9,-105.999,32.119,0.219,0,-0.004,-0,1810.006,465.884,1771.256,5.673,132.967,107.548,4.236,0.813,73231216.143,5328.692,444.981,0.547,0.547,0.324,0.051,0.173,0.038,0.161,-0,0,0,0,0,-0,0.115,6,28.274,81.58,0.008,12.373,92.24,960.738,1153.476,0.05,0.022,444.031
2.981,1475.359,940.586,274.584,949.613,277.884,180.109,0.016,180.109,0.005,130.618,42.696,32.9,-105.999,32.118,0.246,0,-0.002,-0,1805.208,461.087,1771.118,5.665,133.007,107.565,4.24,0.825,74254143.214,5291.546,460.894,0.551,0.551,0.323,0.053,0.175,0.043,0.183,-0,0,0,0,0,-0,0.117,6,28.274,81.629,0.009,11.931,91.986,959.195,1153.196,0.05,0.022,456.796
3.031,1522.732,954.332,274.839,963.521,278.122,186.694,0.017,186.694,0.005,132.751,42.607,32.9,-105.999,32.118,0.247,0,0.001,-0,1800.396,456.275,1770.778,5.657,133.124,107.576,4.258,0.837,75278567.789,5298.92,477.41,0.555,0.555,0.322,0.056,0.177,0.043,0.185,-0,0,0,0,0,0,0.118,6,28.274,81.635,0.01,11.8,91.729,957.629,1152.912,0.05,0.023,469.726
3.081,1570.789,967.933,271.958,977.284,275.295,193.384,0.019,193.384,0.005,134.87,42.736,32.9,-105.999,32.118,0.206,0,0.003,-0,1794.063,449.942,1770.335,5.647,133.363,107.588,4.296,0.849,76289798.052,5254.973,494.34,0.56,0.56,0.321,0.058,0.18,0.036,0.155,-0,0,0,0,0,0,0.12,6,28.274,81.594,0.01,11.724,91.468,956.041,1152.624,0.05,0.023,482.668
3.131,1619.523,981.443,269.945,990.962,273.422,200.181,0.02,200.181,0.006,137.02,43.461,32.9,-105.999,32.118,0.143,0,0.005,-0,1789.756,445.635,1771.063,5.639,133.668,107.626,4.34,0.861,77294552.444,5231.909,511.875,0.564,0.564,0.321,0.062,0.182,0.025,0.108,0,0,0,0,0,0,0.122,6,28.274,81.514,0.01,11.896,91.203,954.431,1152.331,0.05,0.023,495.676
3.181,1668.93,994.815,267.545,1004.508,271.243,207.086,0.021,207.086,0.006,139.21,44.641,32.9,-105.999,32.118,0.049,0,0.006,-0,1780.349,436.228,1769.854,5.624,134.067,107.625,4.407,0.873,78285061.258,5191.35,529.976,0.569,0.569,0.32,0.065,0.184,0.008,0.037,-0,0,0,0,0,0,0.123,6,28.274,81.407,0.01,11.967,90.935,952.798,1152.035,0.05,0.023,508.696
3.231,1719.002,1008.059,264.335,1017.937,268.273,214.103,0.022,214.103,0.006,141.465,45.798,32.9,-105.999,32.118,0.046,0,-0.006,-0,1778.486,434.364,1769.974,5.621,134.201,107.634,4.428,0.885,79265345.934,5159.249,548.832,0.575,0.575,0.319,0.069,0.186,0.008,0.036,0,0,0,0,0,-0,0.125,6,28.274,81.289,0.009,12.122,90.663,951.15,1151.734,0.05,0.024,521.742
3.281,1769.735,1021.249,263.824,1031.323,268.051,221.234,0.023,221.234,0.006,143.794,47.416,32.9,-105.999,32.118,0.143,0,-0.005,-0,1769.624,425.503,1769.799,5.606,134.048,107.657,4.399,0.897,80240958.857,5152.166,568.647,0.581,0.581,0.319,0.074,0.189,0.025,0.111,-0,0,0,0,0,-0,0.127,6,28.274,81.182,0.008,11.982,90.387,949.539,1151.43,0.05,0.024,534.915
3.331,1821.125,1034.369,262.216,1044.647,266.58,228.483,0.025,228.483,0.006,146.184,48.042,32.9,-105.999,32.117,0.179,0,-0.003,0,1765.509,421.387,1768.961,5.6,134.077,107.646,4.405,0.909,81214993.711,5134.96,584.83,0.583,0.583,0.317,0.075,0.191,0.032,0.14,0,0,0,0,0,-0,0.128,6,28.274,81.107,0.008,12.324,90.108,947.907,1151.122,0.05,0.024,548.162
3.381,1873.17,1047.44,261.664,1057.927,266.06,235.853,0.026,235.853,0.006,148.586,48.163,32.9,-105.999,32.117,0.175,0,-0.001,0,1758.156,414.034,1768.555,5.588,134.221,107.654,4.428,0.921,82182768.824,5122.901,599.686,0.583,0.584,0.315,0.075,0.193,0.031,0.138,-0,0,0,0,0,-0,0.13,6,28.274,81.072,0.008,12.673,89.825,946.254,1150.809,0.05,0.024,561.495
3.431,1925.867,1060.441,259.928,1071.135,264.278,243.342,0.027,243.342,0.006,150.979,47.75,32.9,-105.999,32.117,0.162,0,0.001,-0,1752.817,408.696,1768.22,5.579,134.392,107.658,4.456,0.933,83135576.848,5097.09,614.554,0.584,0.584,0.313,0.075,0.196,0.029,0.129,-0,0,0,0,0,0,0.132,6,28.274,81.079,0.008,12.408,89.539,944.58,1150.493,0.05,0.025,574.884
3.481,1979.21,1073.264,256.661,1084.161,260.857,250.95,0.029,250.95,0.007,153.326,46.598,32.9,-105.999,32.117,0.126,0,0.003,-0,1746.805,402.683,1768.057,5.569,134.626,107.667,4.493,0.944,84067347.189,5045.058,629.328,0.585,0.585,0.311,0.076,0.198,0.023,0.102,0,0,0,0,0,0,0.133,6,28.274,81.125,0.008,11.848,89.249,942.886,1150.173,0.05,0.025,588.205
3.531,2033.192,1086.016,255.136,1097.108,259.092,258.673,0.03,258.673,0.007,155.614,45.107,32.9,-105.999,32.117,0.058,-0,0.005,-0,1740.122,396.001,1767.509,5.558,134.955,107.665,4.548,0.956,84991753.541,5017.356,644.639,0.586,0.586,0.309,0.076,0.201,0.01,0.047,0,0,0,0,0,0,0.135,6,28.274,81.202,0.009,11.361,88.956,941.171,1149.849,0.05,0.025,601.564
3.581,2087.81,1098.698,253.569,1109.974,257.172,266.509,0.032,266.509,0.007,157.811,42.898,32.9,-105.999,32.117,0.054,0,-0.005,-0,1736.902,392.78,1766.781,5.553,135.101,107.652,4.575,0.967,85914514.765,4996.996,660.66,0.587,0.587,0.307,0.077,0.203,0.01,0.045,0,0,0,0,0,-0,0.136,6,28.274,81.293,0.009,11.548,88.659,939.437,1149.522,0.05,0.025,614.953
3.631,2143.063,1111.423,254.583,1122.868,257.913,274.453,0.033,274.453,0.007,159.913,41.314,32.9,-105.999,32.116,0.148,0,-0.003,-0,1729.983,385.861,1767.203,5.541,134.964,107.673,4.548,0.979,86837416.339,5007.522,677.011,0.589,0.589,0.305,0.078,0.205,0.027,0.122,-0,0,0,0,0,-0,0.138,6,28.274,81.369,0.01,11.78,88.359,937.682,1149.19,0.05,0.025,628.492
3.681,2198.951,1124.1,253.399,1135.707,256.661,282.499,0.035,282.499,0.007,161.951,40.784,32.9,-105.999,32.116,0.155,0,-0.001,-0,1724.895,380.773,1765.776,5.533,135.076,107.643,4.572,0.99,87742047.766,4992.476,693.298,0.59,0.59,0.303,0.079,0.208,0.028,0.128,-0,0,0,0,0,-0,0.14,6,28.274,81.405,0.011,11.089,88.055,935.907,1148.855,0.05,0.026,642.085
3.731,2255.469,1136.625,250.405,1148.392,253.693,290.648,0.037,290.648,0.007,163.978,40.71,32.9,-105.999,32.116,0.127,0,0.001,-0,1718.57,374.449,1765.529,5.523,135.284,107.644,4.607,1.001,88633972.927,4948.958,709.669,0.592,0.592,0.301,0.081,0.21,0.023,0.107,0,0,0,0,0,0,0.141,6,28.274,81.397,0.012,10.557,87.748,934.112,1148.516,0.05,0.026,655.617
3.781,2312.613,1149.125,249.683,1161.056,253.045,298.898,0.038,298.898,0.007,166.024,41.113,32.9,-105.999,32.116,0.105,0,0.003,-0,1714.86,370.738,1765.192,5.517,135.477,107.638,4.64,1.013,89531738.82,4947.261,726.836,0.594,0.594,0.299,0.087,0.207,0.019,0.089,-0,0,0,0,0,0,0.143,6,28.274,81.352,0.013,10.915,87.438,932.297,1148.173,0.05,0.026,669.234
3.831,2370.375,1161.373,244.774,1173.471,248.252,307.25,0.04,307.25,0.007,168.067,41.412,32.9,-105.999,32.116,0.06,0,0.005,-0,1709.191,365.069,1764.155,5.507,135.733,107.616,4.686,1.024,90408901.594,4879.398,743.945,0.596,0.596,0.297,0.093,0.205,0.011,0.052,-0,0,0,0,0,0,0.144,6,28.274,81.275,0.013,11.397,87.124,930.462,1147.826,0.05,0.026,682.668
3.881,2428.75,1173.611,244.413,1185.885,248.13,315.705,0.042,315.705,0.008,170.174,42.786,32.9,-105.999,32.116,0.002,-0,-0.005,-0.001,1704.165,360.044,1763.48,5.499,136.026,107.602,4.737,1.035,91282900.619,4882.466,761.334,0.598,0.598,0.296,0.099,0.203,0,0.001,0,0,0,0,0,-0,0.146,6,28.274,81.181,0.013,11.844,86.807,928.608,1147.476,0.05,0.027,696.203
3.931,2487.735,1185.763,242.978,1198.221,246.908,324.268,0.044,324.268,0.008,172.338,43.876,32.9,-105.999,32.115,0.054,0,-0.005,-0,1697.609,353.487,1763.006,5.488,135.997,107.592,4.734,1.046,92149282.286,4865.873,778.923,0.6,0.6,0.294,0.105,0.201,0.01,0.047,0,0,0,0,0,-0,0.147,6,28.274,81.087,0.013,12.438,86.487,926.735,1147.122,0.05,0.027,709.745
3.981,2547.323,1197.769,239.761,1210.419,243.863,332.94,0.046,332.94,0.008,174.54,44.541,32.9,-105.999,32.115,0.1,0,-0.003,-0,1694.066,349.944,1762.54,5.482,135.983,107.581,4.734,1.057,92999349.769,4827.207,793.767,0.6,0.6,0.292,0.109,0.199,0.018,0.088,0,0,0,0,0,-0,0.149,6,28.274,81.012,0.012,12.739,86.163,924.842,1146.765,0.05,0.027,723.219
4.031,2607.51,1209.712,238.865,1222.56,242.994,341.722,0.048,341.722,0.008,176.775,44.604,32.9,-105.999,32.115,0.097,0,-0.001,-0,1689.496,345.375,1762.372,5.475,136.104,107.576,4.755,1.068,93845009.543,4817.034,807.22,0.599,0.599,0.29,0.112,0.197,0.018,0.086,-0,0,0,0,0,-0,0.15,6,28.274,80.97,0.011,13.337,85.836,922.931,1146.403,0.05,0.027,736.716
4.081,2668.293,1221.623,238.044,1234.666,242.074,350.617,0.05,350.617,0.008,178.988,43.986,32.9,-105.999,32.115,0.065,0,0,-0,1685.18,341.058,1760.934,5.468,136.306,107.541,4.794,1.079,94685415.601,4807.092,820.729,0.598,0.598,0.288,0.115,0.195,0.012,0.058,0,0,0,0,0,0,0.152,6,28.274,80.962,0.01,13.925,85.506,921,1146.039,0.05,0.027,750.261
4.131,2729.67,1233.442,236.285,1246.674,240.174,359.62,0.052,359.62,0.008,181.156,43.048,32.9,-105.999,32.115,0.031,0,0.001,-0,1681.467,337.345,1760.684,5.462,136.508,107.533,4.829,1.09,95509310.136,4784.317,834.127,0.597,0.597,0.286,0.118,0.193,0.006,0.028,0,0,0,0,0,0,0.153,6,28.274,80.976,0.01,14.058,85.173,919.051,1145.67,0.05,0.028,763.774
4.181,2791.636,1245.194,234.916,1258.611,238.705,368.731,0.054,368.731,0.008,183.284,42.366,32.9,-105.999,32.114,0.012,0,0.002,-0,1677.499,333.377,1759.382,5.455,136.662,107.5,4.86,1.101,96318366.668,4767.095,847.372,0.596,0.596,0.284,0.121,0.191,0.002,0.011,-0,0,0,0,0,0,0.155,6,28.274,81.002,0.009,13.639,84.836,917.083,1145.299,0.05,0.028,777.284
4.231,2854.187,1256.855,233.004,1270.453,236.692,377.948,0.056,377.948,0.009,185.378,41.617,32.9,-105.999,32.114,0.004,0,-0.002,-0,1674.858,330.737,1759.052,5.451,136.779,107.491,4.881,1.111,97115171.214,4744.187,859.648,0.594,0.594,0.283,0.122,0.189,0.001,0.003,-0,0,0,0,0,-0,0.156,6,28.274,81.032,0.01,13.071,84.496,915.096,1144.923,0.05,0.028,790.756
4.281,2917.319,1268.397,230.959,1282.17,234.483,387.268,0.058,387.268,0.009,187.424,40.505,32.9,-105.999,32.114,0.038,0,-0.001,-0,1667.861,323.74,1758.292,5.439,136.772,107.467,4.884,1.122,97905232.118,4708.626,871.924,0.593,0.593,0.282,0.123,0.187,0.007,0.035,-0,0,0,0,0,-0,0.158,6,28.274,81.059,0.012,12.997,84.153,913.091,1144.545,0.05,0.028,804.151
4.331,2981.026,1279.903,229.863,1293.844,233.297,396.69,0.061,396.69,0.009,189.426,39.882,32.9,-105.999,32.114,0.057,0,-0,-0,1665.889,321.767,1757.119,5.436,136.802,107.438,4.894,1.133,98689181.08,4699.407,884.204,0.591,0.591,0.281,0.124,0.185,0.011,0.052,0,0,0,0,0,-0,0.159,6,28.274,81.073,0.013,12.965,83.807,911.067,1144.162,0.05,0.029,817.568
4.381,3045.308,1291.385,229.553,1305.495,233.022,406.211,0.063,406.211,0.009,191.42,40.06,32.9,-105.999,32.114,0.046,0,0.001,-0,1660.523,316.401,1756.039,5.427,136.91,107.406,4.917,1.143,99466103.532,4695.371,896.464,0.59,0.59,0.28,0.125,0.184,0.009,0.043,-0,0,0,0,0,0,0.161,6,28.274,81.063,0.015,12.741,83.458,909.026,1143.777,0.05,0.029,831.027
4.431,3110.161,1302.729,226.905,1317.009,230.459,415.832,0.065,415.832,0.009,193.418,40.317,32.9,-105.999,32.113,0.019,0,0.002,-0,1654.941,310.819,1756.089,5.418,137.06,107.399,4.943,1.154,100229276.99,4657.905,908.602,0.588,0.588,0.28,0.127,0.182,0.004,0.018,0,0,0,0,0,0,0.162,6,28.274,81.034,0.016,12.536,83.106,906.966,1143.388,0.05,0.029,844.381
4.481,3175.581,1314.041,226.05,1328.496,229.656,425.553,0.068,425.553,0.009,195.443,40.54,32.9,-105.999,32.113,0.009,0,0.002,-0,1651.832,307.711,1755.563,5.413,137.152,107.382,4.962,1.164,100994777.472,4651.579,920.874,0.587,0.587,0.279,0.128,0.18,0.002,0.008,-0,0,0,0,0,0,0.163,6,28.274,80.998,0.016,12.931,82.75,904.888,1142.995,0.05,0.029,857.769
4.531,3241.562,1325.231,223.74,1339.862,227.472,435.376,0.071,435.376,0.009,197.467,41.037,32.9,-105.999,32.113,0.023,0,-0.002,-0,1646.719,302.598,1754.428,5.405,137.174,107.347,4.971,1.174,101742017.617,4620.764,932.952,0.586,0.586,0.278,0.129,0.179,0.004,0.021,-0,0,0,0,0,-0,0.165,6,28.274,80.959,0.016,12.867,82.392,902.793,1142.599,0.05,0.03,871.063
4.581,3308.103,1336.369,222.62,1351.183,226.438,445.301,0.073,445.301,0.009,199.533,41.403,32.9,-105.999,32.113,0.041,0,-0.001,-0,1642.161,298.04,1754.508,5.397,137.174,107.339,4.973,1.185,102483062.738,4607.765,945.025,0.584,0.584,0.277,0.13,0.177,0.008,0.039,0,0,0,0,0,-0,0.166,6,28.274,80.929,0.015,12.804,82.031,900.679,1142.2,0.05,0.03,884.362
4.631,3375.199,1347.474,221.941,1362.472,225.76,455.329,0.076,455.329,0.01,201.602,41.351,32.9,-105.999,32.113,0.04,0,-0,-0,1637.596,293.474,1752.988,5.39,137.222,107.296,4.988,1.195,103222061.672,4600.088,957.13,0.583,0.583,0.276,0.132,0.176,0.008,0.038,0,0,0,0,0,-0,0.168,6,28.274,80.918,0.014,12.818,81.666,898.575,1141.797,0.05,0.03,897.703
4.681,3442.844,1358.361,217.851,1373.538,221.545,465.46,0.079,465.46,0.01,203.628,40.289,32.9,-105.998,32.112,0.023,0,0.001,-0,1633.266,289.144,1752.465,5.383,137.308,107.273,5.006,1.205,103946768.446,4542.452,968.487,0.581,0.581,0.275,0.132,0.174,0.004,0.022,0,0,0,0,0,0,0.169,6,28.274,80.925,0.013,12.784,81.299,896.511,1141.392,0.05,0.03,910.869
4.731,3511.034,1369.217,216.944,1384.571,220.569,475.691,0.081,475.691,0.01,205.625,39.826,32.9,-105.998,32.112,0.012,0,0.001,-0,1629.688,285.566,1751.253,5.377,137.368,107.238,5.022,1.215,104662020.321,4531.704,979.215,0.579,0.579,0.274,0.133,0.173,0.002,0.011,0,0,0,0,0,0,0.17,6,28.274,80.943,0.013,12.361,80.928,894.431,1140.982,0.05,0.03,924.045
4.781,3579.765,1380.024,216.389,1395.551,219.855,486.022,0.084,486.022,0.01,207.594,38.883,32.9,-105.998,32.112,0.02,0,-0.001,-0,1625.465,281.344,1751.013,5.37,137.369,107.221,5.025,1.225,105374109.153,4523.463,989.943,0.578,0.578,0.273,0.133,0.171,0.004,0.019,0,0,0,0,0,-0,0.172,6,28.274,80.965,0.014,12.351,80.555,892.334,1140.57,0.05,0.031,937.205
4.831,3649.037,1390.844,216.293,1406.536,219.624,496.45,0.087,496.45,0.01,209.514,38.105,32.9,-105.998,32.112,0.049,0,-0,-0,1620.763,276.641,1750.659,5.362,137.303,107.199,5.017,1.235,106087801.777,4521.006,1000.748,0.576,0.576,0.272,0.134,0.17,0.009,0.047,-0,0,0,0,0,-0,0.173,6,28.274,80.978,0.016,12.605,80.179,890.221,1140.154,0.05,0.031,950.425
4.881,3718.848,1401.595,214.869,1417.448,218.114,506.972,0.09,506.972,0.01,211.397,37.487,32.9,-105.998,32.112,0.067,0,0.001,-0,1618.472,274.35,1748.889,5.358,137.263,107.154,5.018,1.245,106795337.421,4505.762,1011.507,0.574,0.574,0.271,0.134,0.169,0.013,0.063,0,0,0,0,0,0,0.174,6,28.274,80.966,0.017,13.152,79.8,888.092,1139.736,0.05,0.031,963.597
4.931,3789.193,1412.208,212.433,1428.22,215.812,517.589,0.093,517.589,0.01,213.262,38.041,32.9,-105.998,32.111,0.035,0,0.003,-0,1610.56,266.439,1748.754,5.345,137.349,107.124,5.038,1.255,107484145.312,4466.912,1022.008,0.572,0.572,0.27,0.135,0.167,0.007,0.034,-0,0,0,0,0,0,0.176,6,28.274,80.923,0.019,13.263,79.417,885.946,1139.314,0.05,0.031,976.626
4.981,3860.064,1422.656,208.627,1438.837,212.228,528.299,0.097,528.299,0.01,215.178,38.928,32.9,-105.998,32.111,0.015,0,-0.003,-0,1608.908,264.786,1747.104,5.343,137.395,107.084,5.052,1.265,108156616.73,4423.379,1032.308,0.57,0.57,0.269,0.135,0.166,0.003,0.014,-0,0,0,0,0,-0,0.177,6,28.274,80.862,0.019,13.221,79.032,883.784,1138.888,0.05,0.031,989.488
5.031,3931.456,1433.011,207.095,1449.37,210.944,539.107,0.1,539.107,0.011,217.151,40.113,32.9,-105.998,32.111,0.062,0,-0.002,-0,1603.081,258.96,1746.428,5.333,137.247,107.047,5.033,1.275,108817729.792,4402.959,1042.49,0.569,0.569,0.268,0.136,0.165,0.012,0.06,0,0,0,0,0,-0,0.178,6,28.274,80.81,0.019,13.027,78.645,881.606,1138.46,0.05,0.032,1002.277
5.081,4003.364,1443.296,205.38,1459.841,209.25,550.015,0.103,550.015,0.011,219.163,40.055,32.9,-105.998,32.111,0.067,0,-0,-0,1601.741,257.619,1745.404,5.331,137.209,107.021,5.031,1.285,109474120.643,4386.744,1052.63,0.567,0.567,0.267,0.136,0.164,0.013,0.064,-0,0,0,0,0,-0,0.18,6,28.274,80.79,0.018,13.079,78.254,879.412,1138.029,0.05,0.032,1015.017
5.131,4075.784,1453.504,204.275,1470.23,207.965,561.023,0.107,561.023,0.011,221.138,39.003,32.9,-105.998,32.111,0.035,0,0.001,0,1595.849,251.727,1744.638,5.321,137.263,106.98,5.047,1.294,110122524.479,4367.162,1062.673,0.565,0.565,0.266,0.137,0.162,0.007,0.033,0,0,0,0,0,0,0.181,6,28.274,80.804,0.017,13.27,77.861,877.203,1137.594,0.05,0.032,1027.681
5.181,4148.711,1463.573,201.347,1480.47,204.801,572.127,0.11,572.127,0.011,223.034,37.45,32.9,-105.998,32.11,0.001,0,-0.002,-0,1592.445,248.324,1743.107,5.316,137.312,106.935,5.063,1.304,110752404.631,4326.734,1072.472,0.564,0.564,0.265,0.137,0.161,0,0.001,-0,0,0,0,0,-0,0.182,6,28.274,80.837,0.016,13.123,77.465,874.978,1137.156,0.05,0.032,1040.169
5.231,4222.14,1473.599,200.541,1490.658,203.747,583.325,0.114,583.325,0.011,224.867,36.005,32.9,-105.998,32.11,0.046,0,-0.001,0,1588.578,244.456,1742.027,5.309,137.138,106.895,5.041,1.313,111378999.028,4314.547,1082.269,0.562,0.562,0.264,0.138,0.16,0.009,0.044,0,0,0,0,0,-0,0.183,6,28.274,80.867,0.015,13.287,77.066,872.738,1136.716,0.05,0.033,1052.616
5.281,4296.071,1483.625,200.616,1500.837,203.731,594.613,0.117,594.613,0.011,226.644,35.493,32.9,-105.998,32.11,0.064,0,0.001,-0,1583.667,239.545,1741.774,5.301,137.029,106.866,5.027,1.323,112001447.991,4314.229,1092.036,0.561,0.561,0.263,0.138,0.159,0.012,0.06,-0,0,0,0,0,0,0.185,6,28.274,80.873,0.015,13.457,76.664,870.483,1136.272,0.05,0.033,1065.081
5.331,4370.498,1493.479,196.844,1510.843,200.028,605.989,0.121,605.989,0.011,228.4,35.549,32.9,-105.998,32.11,0.043,0,0.002,0,1581.189,237.067,1740.231,5.297,137.017,106.824,5.032,1.332,112605834.243,4267.922,1101.542,0.559,0.559,0.263,0.139,0.158,0.008,0.041,-0,0,0,0,0,0,0.186,6,28.274,80.845,0.015,13.442,76.26,868.213,1135.826,0.05,0.033,1077.326
5.381,4445.419,1503.332,196.933,1520.856,200.354,617.454,0.125,617.454,0.012,230.212,36.864,32.9,-105.998,32.109,0.003,0,0.003,0,1577.554,233.432,1740.06,5.291,137.047,106.801,5.041,1.341,113207907.141,4274.206,1111.047,0.558,0.558,0.262,0.139,0.157,0.001,0.002,-0,0,0,0,0,0,0.187,6,28.274,80.794,0.016,13.478,75.853,865.927,1135.376,0.05,0.033,1089.608
5.431,4520.832,1513.194,196.931,1530.89,200.628,629.012,0.129,629.012,0.012,232.097,38.342,32.9,-105.998,32.109,0.043,0,-0.002,0,1575.901,231.78,1738.425,5.289,136.849,106.761,5.015,1.351,113806099.929,4283.589,1120.537,0.556,0.556,0.261,0.14,0.156,0.008,0.04,0,0,0,0,0,-0,0.188,6,28.274,80.742,0.018,13.327,75.443,863.627,1134.924,0.05,0.033,1101.943
5.481,4596.736,1522.975,195.659,1540.851,199.486,640.665,0.132,640.665,0.012,234.032,38.886,32.9,-105.998,32.109,0.065,0,-0.001,0,1571.767,227.646,1738.211,5.282,136.691,106.734,4.993,1.36,114394708.469,4268.827,1129.912,0.555,0.555,0.26,0.14,0.154,0.012,0.061,-0,0,0,0,0,-0,0.19,6,28.274,80.715,0.02,13.124,75.031,861.311,1134.468,0.05,0.034,1114.195
5.531,4673.129,1532.72,194.806,1550.779,198.639,652.415,0.136,652.415,0.012,235.974,38.836,32.9,-105.998,32.109,0.069,0,0.001,0,1568.847,224.725,1737.617,5.277,136.574,106.706,4.978,1.369,114971968.827,4260.684,1139.132,0.553,0.553,0.259,0.141,0.153,0.013,0.064,-0,0,0,0,0,0,0.191,6,28.274,80.724,0.021,12.434,74.616,858.981,1134.01,0.05,0.034,1126.419
5.581,4750.004,1542.306,191.777,1560.541,195.285,664.261,0.14,664.261,0.012,237.866,36.853,32.9,-105.998,32.108,0.023,0,0.003,0,1565.469,221.347,1736.538,5.271,136.581,106.665,4.986,1.378,115537812.525,4218.25,1148.185,0.552,0.552,0.258,0.141,0.152,0.004,0.021,-0,0,0,0,0,0,0.192,6,28.274,80.77,0.02,12.113,74.198,856.636,1133.549,0.05,0.034,1138.421
5.631,4827.36,1551.907,192.016,1570.303,195.187,676.2,0.145,676.2,0.012,239.657,35.043,32.9,-105.998,32.108,0.033,0,-0.003,-0,1561.58,217.458,1735.828,5.265,136.426,106.628,4.966,1.388,116101418.837,4218.973,1157.251,0.55,0.55,0.257,0.142,0.151,0.006,0.031,-0,0,0,0,0,-0,0.193,6,28.274,80.829,0.02,11.894,73.778,854.276,1133.085,0.05,0.034,1150.438
5.681,4905.193,1561.434,190.754,1579.976,193.597,688.225,0.149,688.225,0.012,241.35,33.055,32.9,-105.998,32.108,0.089,0,-0.001,0,1557.981,213.86,1733.67,5.259,136.139,106.565,4.929,1.397,116660837.803,4199.966,1166.303,0.549,0.549,0.256,0.142,0.15,0.016,0.08,0,0,0,0,0,-0,0.194,6,28.274,80.868,0.019,12.215,73.355,851.902,1132.618,0.05,0.035,1162.34
5.731,4983.499,1570.817,187.466,1589.495,190.266,700.333,0.153,700.333,0.013,242.959,32.521,32.9,-105.998,32.108,0.09,0,0.002,0,1554.111,209.989,1733.148,5.253,135.989,106.53,4.91,1.406,117205472.195,4156.018,1174.63,0.547,0.547,0.256,0.142,0.149,0.016,0.08,0,0,0,0,0,0,0.196,6,28.274,80.857,0.018,12.47,72.93,849.513,1132.148,0.05,0.035,1174.026
5.781,5062.273,1580.122,185.953,1598.944,189.039,712.522,0.157,712.522,0.013,244.612,34.023,32.9,-105.998,32.108,0.038,0,0.004,-0,1551.805,207.683,1732.063,5.249,135.972,106.495,4.913,1.415,117749478.822,4142.703,1182.588,0.546,0.546,0.255,0.142,0.148,0.007,0.034,-0,0,0,0,0,0,0.197,6,28.274,80.795,0.019,12.499,72.502,847.193,1131.675,0.05,0.035,1185.734
5.831,5141.51,1589.351,184.318,1608.333,187.884,724.796,0.162,724.796,0.013,246.37,36.43,32.9,-105.998,32.107,0.042,0,-0.004,-0,1546.176,202.054,1731.148,5.24,135.796,106.439,4.893,1.423,118285195.535,4123.441,1190.444,0.544,0.544,0.254,0.142,0.148,0.007,0.037,-0,0,0,0,0,-0,0.198,6,28.274,80.714,0.02,12.228,72.072,844.873,1131.2,0.05,0.035,1197.384
5.881,5221.207,1598.541,183.574,1617.703,187.605,737.161,0.166,737.161,0.013,248.256,38.682,32.9,-105.998,32.107,0.113,0,-0.002,0,1543.019,198.897,1728.636,5.235,135.429,106.371,4.843,1.432,118808500.547,4120.262,1198.159,0.542,0.542,0.253,0.142,0.147,0.02,0.099,-0,0,0,0,0,-0,0.199,6,28.274,80.657,0.022,11.364,71.639,842.539,1130.722,0.05,0.036,1209.014
5.931,5301.359,1607.54,180.2,1626.889,183.981,749.622,0.171,749.622,0.013,250.167,37.105,32.9,-105.998,32.107,0.079,0,0.002,0,1538.975,194.853,1729.461,5.228,135.332,106.356,4.829,1.441,119330175.485,4072.566,1205.792,0.541,0.541,0.252,0.143,0.146,0.014,0.068,0,0,0,0,0,0,0.2,6,28.274,80.663,0.023,11.759,71.203,840.193,1130.241,0.05,0.036,1220.377
5.981,5381.961,1616.543,180.083,1636.062,183.515,762.175,0.176,762.175,0.013,251.965,35.327,32.9,-105.998,32.107,0.027,0,0.003,0,1535.251,191.129,1726.116,5.222,135.275,106.268,4.835,1.45,119841273.807,4067.739,1213.274,0.539,0.539,0.251,0.143,0.145,0.005,0.023,0,0,0,0,0,0,0.201,6,28.274,80.716,0.023,11.595,70.766,837.833,1129.757,0.05,0.036,1231.727
6.031,5463.006,1625.253,174.5,1644.923,177.351,774.816,0.181,774.816,0.013,253.622,31.672,32.9,-105.997,32.106,0.055,0,-0.003,0,1531.487,187.365,1726.825,5.216,134.997,106.25,4.791,1.458,120330734.104,3987.24,1220.463,0.537,0.537,0.251,0.143,0.144,0.01,0.047,0,0,0,0,0,-0,0.202,6,28.274,80.78,0.02,11.857,70.325,835.46,1129.271,0.05,0.037,1242.61
6.081,5544.486,1633.964,174.209,1653.765,176.822,787.535,0.185,787.535,0.013,255.146,30.283,32.9,-105.997,32.106,0.094,0,-0,0,1527.775,183.653,1726.023,5.21,134.677,106.206,4.745,1.467,120814562.085,3980.951,1227.585,0.536,0.536,0.25,0.143,0.143,0.017,0.079,-0,0,0,0,0,-0,0.204,6,28.274,80.814,0.018,11.993,69.883,833.074,1128.782,0.05,0.037,1253.465
6.131,5626.396,1642.433,169.239,1662.361,171.899,800.329,0.19,800.329,0.014,256.627,30.122,32.9,-105.997,32.106,0.075,0,0.002,0,1524.875,180.754,1724.095,5.205,134.509,106.148,4.727,1.475,121273002.738,3917.438,1234.291,0.534,0.534,0.249,0.143,0.142,0.013,0.061,0,0,0,0,0,0,0.205,6,28.274,80.794,0.017,11.798,69.438,830.676,1128.291,0.05,0.037,1263.945
6.181,5708.722,1650.597,163.13,1670.66,166.127,813.198,0.195,813.198,0.014,258.136,31.414,32.9,-105.997,32.106,0.008,0,0.004,0,1520.56,176.438,1724.682,5.198,134.469,106.12,4.725,1.483,121703846.358,3839.607,1240.572,0.533,0.533,0.248,0.143,0.142,0.001,0.006,0,0,0,0,0,0,0.206,6,28.274,80.733,0.018,11.355,68.991,828.265,1127.797,0.05,0.037,1273.97
6.231,5791.439,1658.083,149.572,1678.292,152.823,826.142,0.2,826.142,0.014,259.662,31.357,32.9,-105.997,32.105,0.055,0,-0.003,0,1517.229,173.107,1722.879,5.192,134.125,106.06,4.678,1.49,122084416.454,3663.94,1246.124,0.531,0.531,0.248,0.143,0.141,0.009,0.045,-0,0,0,0,0,-0,0.207,6,28.274,80.669,0.02,11.024,68.541,825.843,1127.3,0.05,0.037,1282.967
6.281,5874.506,1664.603,130.44,1684.955,133.462,839.161,0.205,839.161,0.014,261.093,28.239,32.9,-105.997,32.105,0.053,0,-0.001,0,1514.477,170.355,1720.867,5.188,133.928,106.001,4.655,1.497,122404781.043,3410.522,1250.747,0.53,0.53,0.247,0.143,0.14,0.009,0.042,-0,0,0,0,0,-0,0.207,6,28.274,80.634,0.023,11.807,68.09,823.411,1126.802,0.05,0.038,1290.467
6.331,5957.874,1670.08,109.583,1690.555,112.218,852.247,0.211,852.247,0.014,262.313,24.174,32.9,-105.997,32.105,0.032,0,0,0,1511.696,167.574,1721.349,5.183,133.816,105.982,4.639,1.503,122642345.451,3132.458,1254.103,0.529,0.529,0.246,0.143,0.14,0.005,0.025,-0,0,0,0,0,0,0.208,6,28.274,80.631,0.026,12.321,67.637,820.97,1126.302,0.05,0.038,1296.321
6.381,6041.481,1674.232,83.099,1694.807,85.237,865.387,0.216,865.387,0.014,263.282,18.97,32.9,-105.997,32.105,0.006,0,0.001,0,1509.384,165.262,1716.975,5.179,133.763,105.888,4.646,1.507,122775059.597,2779.494,1255.864,0.528,0.528,0.246,0.143,0.139,0.001,0.004,0,0,0,0,0,0,0.209,6,28.274,80.643,0.027,12.418,67.183,818.522,1125.8,0.05,0.038,1300.084
6.431,6125.265,1677.101,57.473,1697.753,59.231,878.569,0.221,878.569,0.014,264.001,14.322,32.9,-105.997,32.104,0.007,0,-0.001,0,1506.874,162.753,1717.727,5.175,133.67,105.876,4.632,1.51,122806575.482,2438.108,1256.088,0.528,0.528,0.246,0.143,0.139,0.001,0.005,-0,0,0,0,0,-0,0.209,6,28.274,80.659,0.025,12.1,66.728,816.069,1125.297,0.05,0.038,1301.824
6.481,6209.175,1679.308,44.256,1700.026,45.78,891.784,0.227,891.784,0.015,264.599,11.715,32.9,-105.997,32.104,0.02,0,-0,0,1504.726,160.604,1717.031,5.172,133.558,105.843,4.619,1.513,122789322.992,2260.826,1255.571,0.527,0.527,0.245,0.143,0.139,0.003,0.015,-0,0,0,0,0,-0,0.209,6,28.274,80.671,0.024,11.905,66.272,813.612,1124.794,0.05,0.039,1302.509
6.531,6293.188,1681.203,37.899,1701.98,39.479,905.027,0.232,905.027,0.015,265.133,11.056,32.9,-105.997,32.104,0.008,0,0,0,1503.32,159.199,1714.664,5.169,133.526,105.79,4.623,1.515,122742796.263,2176.057,1254.61,0.527,0.527,0.245,0.143,0.139,0.001,0.006,0,0,0,0,0,0,0.209,6,28.274,80.672,0.022,11.284,65.816,811.152,1124.29,0.05,0.039,1302.689
6.581,6377.289,1682.856,33.132,1703.697,34.871,918.297,0.238,918.297,0.015,265.664,10.872,32.9,-105.997,32.103,0.011,0,-0,0,1500.034,155.912,1712.826,5.164,133.457,105.727,4.622,1.518,122675990.415,2111.423,1253.345,0.527,0.527,0.245,0.143,0.138,0.002,0.008,-0,0,0,0,0,-0,0.21,6,28.274,80.668,0.021,10.499,65.359,808.689,1123.785,0.05,0.039,1302.488
6.631,6461.466,1684.22,27.365,1705.121,29.026,931.593,0.243,931.593,0.015,266.161,9.68,32.9,-105.997,32.103,0.004,0,0,-0,1500.298,156.176,1709.973,5.164,133.423,105.684,4.623,1.519,122595088.439,2033.805,1251.869,0.526,0.526,0.245,0.143,0.138,0.001,0.003,-0,0,0,0,0,0,0.21,6,28.274,80.67,0.021,10.42,64.902,806.225,1123.28,0.05,0.039,1301.824
6.681,6545.708,1685.459,24.901,1706.415,26.399,944.912,0.249,944.912,0.015,266.609,8.767,32.9,-105.997,32.103,0.013,0,-0,-0,1499.588,155.466,1709.588,5.163,133.345,105.67,4.613,1.521,122506634.835,1998.428,1250.284,0.526,0.526,0.245,0.143,0.138,0.002,0.01,-0,0,0,0,0,-0,0.21,6,28.274,80.674,0.024,10.592,64.444,803.758,1122.775,0.05,0.04,1300.946
6.731,6630.006,1686.456,20.043,1707.459,21.352,958.252,0.255,958.252,0.015,266.992,7.363,32.9,-105.997,32.103,0.033,0,0.001,-0,1499.112,154.99,1706.026,5.163,133.243,105.607,4.606,1.523,122402847.167,1931.331,1248.474,0.526,0.526,0.244,0.143,0.138,0.005,0.025,-0,0,0,0,0,0,0.21,6,28.274,80.671,0.026,11.076,63.986,801.29,1122.269,0.05,0.04,1299.675
6.781,6714.35,1687.327,17.534,1708.373,18.833,971.61,0.261,971.61,0.015,267.331,6.875,32.9,-105.997,32.102,0.036,0,0.002,-0,1497.552,153.43,1703.226,5.16,133.189,105.546,4.607,1.525,122303779.136,1895.745,1246.666,0.525,0.525,0.244,0.143,0.138,0.006,0.027,0,0,0,0,0,0,0.21,6,28.274,80.65,0.026,11.62,63.528,798.915,1121.763,0.05,0.04,1298.346
6.831,6798.736,1688.095,15.385,1709.184,16.919,984.985,0.267,984.985,0.016,267.667,7.039,32.9,-105.997,32.102,0.02,0,0.003,-0,1496.546,152.424,1701.782,5.158,133.189,105.512,4.613,1.526,122196851.484,1866.293,1244.734,0.525,0.525,0.244,0.143,0.138,0.003,0.015,0,0,0,0,0,0,0.21,6,28.274,80.609,0.026,12.114,63.07,796.545,1121.257,0.05,0.04,1296.86
6.881,6883.154,1688.646,11.094,1709.781,13.15,998.377,0.273,998.377,0.016,268.003,7.06,32.9,-105.997,32.102,0.003,0,-0.003,-0,1494.48,150.358,1699.206,5.155,133.199,105.449,4.625,1.527,122074745.714,1808.656,1242.58,0.525,0.525,0.244,0.143,0.138,0,0.002,0,0,0,0,0,-0,0.21,6,28.274,80.559,0.026,12.7,62.611,794.175,1120.75,0.05,0.041,1295.039
6.931,6967.595,1689,7.136,1710.184,10.072,1011.785,0.279,1011.785,0.016,268.342,7.108,32.9,-105.997,32.102,0.025,0,-0.002,-0,1493.212,149.091,1696.818,5.153,133.106,105.397,4.618,1.529,121937347.211,1755.528,1240.203,0.525,0.525,0.244,0.143,0.137,0.004,0.018,0,0,0,0,0,-0,0.21,6,28.274,80.51,0.024,13.223,62.153,791.803,1120.244,0.05,0.041,1292.916
6.981,7052.051,1689.235,4.782,1710.472,8.889,1025.211,0.285,1025.211,0.016,268.696,7.493,32.9,-105.997,32.101,0.049,0,-0.001,0,1491.632,147.51,1694.415,5.15,133.012,105.342,4.612,1.529,121784661.725,1723.289,1237.606,0.524,0.524,0.244,0.143,0.137,0.008,0.038,0,0,0,0,0,-0,0.211,6,28.274,80.475,0.023,13.21,61.694,789.431,1119.737,0.05,0.041,1290.613
7.031,7136.513,1689.246,0.277,1710.538,7.416,1038.654,0.291,1038.654,0.016,269.051,7.411,32.9,-105.997,32.101,0.071,0,0,0,1491.041,146.919,1693.374,5.149,132.934,105.319,4.603,1.53,121606448.996,1662.705,1234.633,0.524,0.524,0.244,0.143,0.137,0.012,0.054,0,0,0,0,0,0,0.211,6,28.274,80.467,0.024,12.422,61.235,787.059,1119.23,0.05,0.041,1287.967
7.081,7220.972,1689.118,-2.206,1710.463,5.626,1052.115,0.297,1052.115,0.016,269.375,5.175,32.9,-105.997,32.101,0.012,0,0.002,-0,1489.192,145.07,1689.066,5.146,133.073,105.229,4.641,1.531,121434027.765,1622.985,1231.726,0.524,0.524,0.244,0.143,0.137,0.002,0.009,-0,0,0,0,0,0,0.211,6,28.274,80.495,0.024,13.05,60.776,784.687,1118.723,0.05,0.042,1285.105
7.131,7305.422,1688.887,-4.407,1710.263,5.459,1065.589,0.303,1065.589,0.016,269.556,3.222,32.9,-105.997,32.101,0.039,0,-0.001,-0,1487.102,142.98,1688.547,5.143,132.982,105.2,4.63,1.531,121249483.975,1587.35,1228.666,0.524,0.524,0.244,0.143,0.137,0.006,0.03,0,0,0,0,0,-0,0.211,6,28.274,80.531,0.025,13.456,60.318,782.316,1118.217,0.05,0.042,1282.052
